{
  "rooms": [],
  "universities": [
    {
      "id": "neu",
      "name": "Đại học Kinh tế Quốc dân",
      "shortName": "NEU",
      "lat": 21.0016,
      "lng": 105.8428,
      "address": "207 Giải Phóng, Đồng Tâm, Hai Bà Trưng, Hà Nội"
    },
    {
      "id": "hust",
      "name": "Đại học Bách Khoa Hà Nội",
      "shortName": "HUST",
      "lat": 21.0045,
      "lng": 105.8425,
      "address": "1 Đại Cồ Việt, Bách Khoa, Hai Bà Trưng, Hà Nội"
    },
    {
      "id": "vnu",
      "name": "Đại học Quốc gia Hà Nội",
      "shortName": "VNU (Cầu Giấy)",
      "lat": 21.0375,
      "lng": 105.7825,
      "address": "144 Xuân Thủy, Dịch Vọng Hậu, Cầu Giấy, Hà Nội"
    },
    {
      "id": "tmu",
      "name": "Đại học Thương mại",
      "shortName": "TMU",
      "lat": 21.0392,
      "lng": 105.7692,
      "address": "79 Hồ Tùng Mậu, Mai Dịch, Cầu Giấy, Hà Nội"
    },
    {
      "id": "ptit",
      "name": "Học viện Công nghệ Bưu chính Viễn thông",
      "shortName": "PTIT",
      "lat": 20.9801,
      "lng": 105.7876,
      "address": "96A Trần Phú, Mộ Lao, Hà Đông, Hà Nội"
    },
    {
      "id": "hau",
      "name": "Đại học Kiến trúc Hà Nội",
      "shortName": "HAU",
      "lat": 20.9818,
      "lng": 105.7855,
      "address": "Trần Phú, Văn Quán, Hà Đông, Hà Nội"
    },
    {
      "id": "hanu",
      "name": "Đại học Hà Nội",
      "shortName": "HANU",
      "lat": 20.986,
      "lng": 105.7965,
      "address": "Km 9 Nguyễn Trãi, Trung Văn, Nam Từ Liêm, Hà Nội"
    },
    {
      "id": "tlu",
      "name": "Đại học Thủy lợi",
      "shortName": "TLU",
      "lat": 21.008,
      "lng": 105.8235,
      "address": "175 Tây Sơn, Trung Liệt, Đống Đa, Hà Nội"
    }
  ]
}